{"businesses": [{"id": "_TupLqvdaKr4OHjnu8W4WA", "alias": "shaolin-kung-fu-noodle-balmoral", "name": "Shaolin Kung Fu Noodle", "image_url": "https://s3-media1.fl.yelpcdn.com/bphoto/MSZHu9XzplzXkK1v-TJDnw/o.jpg", "is_closed": false, "url": "https://www.yelp.com/biz/shaolin-kung-fu-noodle-balmoral?adjust_creative=wwF0xmAmk6ZmxYuaGEHDag&utm_campaign=yelp_api_v3&utm_medium=api_v3_business_search&utm_source=wwF0xmAmk6ZmxYuaGEHDag", "review_count": 21, "categories": [{"alias": "chinese", "title": "Chinese"}], "rating": 4.0, "coordinates": {"latitude": -36.8882860175587, "longitude": 174.747163087241}, "transactions": [], "price": "$", "location": {"address1": "636 Dominion Rd", "address2": "", "address3": "", "city": "Balmoral", "zip_code": "1041", "country": "NZ", "state": "AUK", "display_address": ["636 Dominion Rd", "Balmoral 1041", "New Zealand"]}, "phone": "+6496236298", "display_phone": "+64 9-623 6298", "distance": 184.61922577272574}, {"id": "zp0Thsg3gu4hICWOFJbSuA", "alias": "kiss-kiss-auckland", "name": "Kiss Kiss", "image_url": "https://s3-media1.fl.yelpcdn.com/bphoto/a1lG6y2hF94yHtP0pDLOEg/o.jpg", "is_closed": false, "url": "https://www.yelp.com/biz/kiss-kiss-auckland?adjust_creative=wwF0xmAmk6ZmxYuaGEHDag&utm_campaign=yelp_api_v3&utm_medium=api_v3_business_search&utm_source=wwF0xmAmk6ZmxYuaGEHDag", "review_count": 11, "categories": [{"alias": "cafes", "title": "Cafes"}, {"alias": "thai", "title": "Thai"}], "rating": 4.5, "coordinates": {"latitude": -36.88861, "longitude": 174.74751}, "transactions": [], "price": "$$", "location": {"address1": "1A Rocklands Ave", "address2": "Balmoral", "address3": "", "city": "Auckland", "zip_code": "1024", "country": "NZ", "state": "AUK", "display_address": ["1A Rocklands Ave", "Balmoral", "Auckland 1024", "New Zealand"]}, "phone": "+6496003076", "display_phone": "+64 9-600 3076", "distance": 221.28782932617924}, {"id": "JhgGblU4YUdlBYdQvZdM-g", "alias": "spicy-house-auckland", "name": "Spicy House", "image_url": "https://s3-media4.fl.yelpcdn.com/bphoto/HZeqcmVZNtw-LvB-YOf2-A/o.jpg", "is_closed": false, "url": "https://www.yelp.com/biz/spicy-house-auckland?adjust_creative=wwF0xmAmk6ZmxYuaGEHDag&utm_campaign=yelp_api_v3&utm_medium=api_v3_business_search&utm_source=wwF0xmAmk6ZmxYuaGEHDag", "review_count": 12, "categories": [{"alias": "chinese", "title": "Chinese"}], "rating": 4.5, "coordinates": {"latitude": -36.8878103, "longitude": 174.7471663}, "transactions": [], "price": "$", "location": {"address1": "557 Dominion Road", "address2": "Balmoral", "address3": "", "city": "Auckland", "zip_code": "1041", "country": "NZ", "state": "AUK", "display_address": ["557 Dominion Road", "Balmoral", "Auckland 1041", "New Zealand"]}, "phone": "+6496315128", "display_phone": "+64 9-631 5128", "distance": 131.8444816231086}, {"id": "0O5LAdXSjDunzjRQGcSkpg", "alias": "new-flavour-restaurant-auckland", "name": "New Flavour Restaurant", "image_url": "https://s3-media4.fl.yelpcdn.com/bphoto/7VlfoDJUNEAwEwdqmqh-9g/o.jpg", "is_closed": false, "url": "https://www.yelp.com/biz/new-flavour-restaurant-auckland?adjust_creative=wwF0xmAmk6ZmxYuaGEHDag&utm_campaign=yelp_api_v3&utm_medium=api_v3_business_search&utm_source=wwF0xmAmk6ZmxYuaGEHDag", "review_count": 21, "categories": [{"alias": "chinese", "title": "Chinese"}], "rating": 3.5, "coordinates": {"latitude": -36.88745, "longitude": 174.74712}, "transactions": [], "price": "$", "location": {"address1": "537 Dominion Rd", "address2": "Balmoral", "address3": null, "city": "Auckland", "zip_code": "1041", "country": "NZ", "state": "AUK", "display_address": ["537 Dominion Rd", "Balmoral", "Auckland 1041", "New Zealand"]}, "phone": "+6496386880", "display_phone": "+64 9-638 6880", "distance": 88.54701660936486}, {"id": "C7-CgBLuTtPWGAlAwkMBzA", "alias": "banzai-auckland", "name": "Banzai", "image_url": "https://s3-media2.fl.yelpcdn.com/bphoto/AqnIVDo_DdIgEbWTdo-X6g/o.jpg", "is_closed": false, "url": "https://www.yelp.com/biz/banzai-auckland?adjust_creative=wwF0xmAmk6ZmxYuaGEHDag&utm_campaign=yelp_api_v3&utm_medium=api_v3_business_search&utm_source=wwF0xmAmk6ZmxYuaGEHDag", "review_count": 13, "categories": [{"alias": "japanese", "title": "Japanese"}, {"alias": "sushi", "title": "Sushi Bars"}], "rating": 4.0, "coordinates": {"latitude": -36.8884713, "longitude": 174.7466501}, "transactions": [], "price": "$$", "location": {"address1": "Shop 8", "address2": "583 Dominion Rd", "address3": "Balmoral", "city": "Auckland", "zip_code": "1041", "country": "NZ", "state": "AUK", "display_address": ["Shop 8", "583 Dominion Rd", "Balmoral", "Auckland 1041", "New Zealand"]}, "phone": "+6496304489", "display_phone": "+64 9-630 4489", "distance": 212.70770304754004}, {"id": "PwObRn2eyqlaL71mdc2Ogg", "alias": "barilla-dumpling-auckland", "name": "Barilla Dumpling", "image_url": "https://s3-media3.fl.yelpcdn.com/bphoto/MAPKoGyX5kyhnL8PpaeH2w/o.jpg", "is_closed": false, "url": "https://www.yelp.com/biz/barilla-dumpling-auckland?adjust_creative=wwF0xmAmk6ZmxYuaGEHDag&utm_campaign=yelp_api_v3&utm_medium=api_v3_business_search&utm_source=wwF0xmAmk6ZmxYuaGEHDag", "review_count": 24, "categories": [{"alias": "chinese", "title": "Chinese"}], "rating": 3.5, "coordinates": {"latitude": -36.8882884, "longitude": 174.7469988}, "transactions": [], "price": "$", "location": {"address1": "571 Dominion Road", "address2": "Balmoral", "address3": "", "city": "Auckland", "zip_code": "1041", "country": "NZ", "state": "AUK", "display_address": ["571 Dominion Road", "Balmoral", "Auckland 1041", "New Zealand"]}, "phone": "+6496388032", "display_phone": "+64 9-638 8032", "distance": 186.37503791668266}, {"id": "GLWf_ygK1_jcmimy5A5z8w", "alias": "tusk-auckland", "name": "Tusk", "image_url": "https://s3-media1.fl.yelpcdn.com/bphoto/gTfj5_-tgREwn17o_hH3HA/o.jpg", "is_closed": false, "url": "https://www.yelp.com/biz/tusk-auckland?adjust_creative=wwF0xmAmk6ZmxYuaGEHDag&utm_campaign=yelp_api_v3&utm_medium=api_v3_business_search&utm_source=wwF0xmAmk6ZmxYuaGEHDag", "review_count": 12, "categories": [{"alias": "bars", "title": "Bars"}, {"alias": "thai", "title": "Thai"}], "rating": 3.5, "coordinates": {"latitude": -36.8876724, "longitude": 174.747406}, "transactions": [], "price": "$$", "location": {"address1": "590 Dominion Rd", "address2": "Mt Eden", "address3": null, "city": "Auckland", "zip_code": "1041", "country": "NZ", "state": "AUK", "display_address": ["590 Dominion Rd", "Mt Eden", "Auckland 1041", "New Zealand"]}, "phone": "+6496389516", "display_phone": "+64 9-638 9516", "distance": 99.9011824910425}, {"id": "zrIGrw2AV0MxFumzomu0ow", "alias": "zap2-auckland", "name": "Zap2", "image_url": "https://s3-media1.fl.yelpcdn.com/bphoto/CR3M3UGEbbM0xqZsajoCqA/o.jpg", "is_closed": false, "url": "https://www.yelp.com/biz/zap2-auckland?adjust_creative=wwF0xmAmk6ZmxYuaGEHDag&utm_campaign=yelp_api_v3&utm_medium=api_v3_business_search&utm_source=wwF0xmAmk6ZmxYuaGEHDag", "review_count": 12, "categories": [{"alias": "thai", "title": "Thai"}], "rating": 4.0, "coordinates": {"latitude": -36.8900763743848, "longitude": 174.746342816428}, "transactions": [], "price": "$$", "location": {"address1": "639 Dominion Rd", "address2": "Balmoral", "address3": null, "city": "Auckland", "zip_code": "1041", "country": "NZ", "state": "AUK", "display_address": ["639 Dominion Rd", "Balmoral", "Auckland 1041", "New Zealand"]}, "phone": "+6496386393", "display_phone": "+64 9-638 6393", "distance": 392.55309907913454}, {"id": "IQuLNUnwpmp65mJ81NAvJg", "alias": "jungle-flavour-thai-restaurant-and-bar-auckland", "name": "Jungle Flavour Thai Restaurant & Bar", "image_url": "https://s3-media2.fl.yelpcdn.com/bphoto/Ebe6ocV6Xu8mik7YVaLtqw/o.jpg", "is_closed": false, "url": "https://www.yelp.com/biz/jungle-flavour-thai-restaurant-and-bar-auckland?adjust_creative=wwF0xmAmk6ZmxYuaGEHDag&utm_campaign=yelp_api_v3&utm_medium=api_v3_business_search&utm_source=wwF0xmAmk6ZmxYuaGEHDag", "review_count": 6, "categories": [{"alias": "thai", "title": "Thai"}], "rating": 3.5, "coordinates": {"latitude": -36.8863528686783, "longitude": 174.747510552406}, "transactions": [], "price": "$$", "location": {"address1": "2 Dunbar Rd", "address2": "Balmoral", "address3": null, "city": "Auckland", "zip_code": "1024", "country": "NZ", "state": "AUK", "display_address": ["2 Dunbar Rd", "Balmoral", "Auckland 1024", "New Zealand"]}, "phone": "+6496388065", "display_phone": "+64 9-638 8065", "distance": 36.24476996088212}, {"id": "avuauSV1AiO2KtoTP7Nvaw", "alias": "flavour-house-auckland", "name": "Flavour House", "image_url": "https://s3-media3.fl.yelpcdn.com/bphoto/c0MNz6x0TzGhJq6K_Eqaug/o.jpg", "is_closed": false, "url": "https://www.yelp.com/biz/flavour-house-auckland?adjust_creative=wwF0xmAmk6ZmxYuaGEHDag&utm_campaign=yelp_api_v3&utm_medium=api_v3_business_search&utm_source=wwF0xmAmk6ZmxYuaGEHDag", "review_count": 5, "categories": [{"alias": "chinese", "title": "Chinese"}], "rating": 4.0, "coordinates": {"latitude": -36.8878784, "longitude": 174.7473602}, "transactions": [], "price": "$$", "location": {"address1": "614 Dominion Rd", "address2": "Balmoral", "address3": null, "city": "Auckland", "zip_code": "1041", "country": "NZ", "state": "AUK", "display_address": ["614 Dominion Rd", "Balmoral", "Auckland 1041", "New Zealand"]}, "phone": "+6496307034", "display_phone": "+64 9-630 7034", "distance": 113.92719541098836}, {"id": "xW8zgbybVPY9FnUIz0zZ0g", "alias": "potters-park-auckland", "name": "Potters Park", "image_url": "https://s3-media2.fl.yelpcdn.com/bphoto/zjaT3w5qX0c6lc2HbSiSvA/o.jpg", "is_closed": false, "url": "https://www.yelp.com/biz/potters-park-auckland?adjust_creative=wwF0xmAmk6ZmxYuaGEHDag&utm_campaign=yelp_api_v3&utm_medium=api_v3_business_search&utm_source=wwF0xmAmk6ZmxYuaGEHDag", "review_count": 5, "categories": [{"alias": "parks", "title": "Parks"}], "rating": 4.0, "coordinates": {"latitude": -36.8865460657551, "longitude": 174.748808847607}, "transactions": [], "location": {"address1": "Corner Balmoral Rd & Dominion Rd", "address2": "", "address3": "", "city": "Auckland", "zip_code": "1024", "country": "NZ", "state": "AUK", "display_address": ["Corner Balmoral Rd & Dominion Rd", "Auckland 1024", "New Zealand"]}, "phone": "", "display_phone": "", "distance": 135.04034644316593}, {"id": "kDyPyi_ei3zx8hM4azu3Qw", "alias": "ras-vatika-auckland", "name": "Ras Vatika", "image_url": "https://s3-media3.fl.yelpcdn.com/bphoto/SJ-wk0yrKsT58FroPl-Yng/o.jpg", "is_closed": false, "url": "https://www.yelp.com/biz/ras-vatika-auckland?adjust_creative=wwF0xmAmk6ZmxYuaGEHDag&utm_campaign=yelp_api_v3&utm_medium=api_v3_business_search&utm_source=wwF0xmAmk6ZmxYuaGEHDag", "review_count": 7, "categories": [{"alias": "indpak", "title": "Indian"}, {"alias": "vegetarian", "title": "Vegetarian"}, {"alias": "vegan", "title": "Vegan"}], "rating": 3.5, "coordinates": {"latitude": -36.8876276, "longitude": 174.747359}, "transactions": [], "location": {"address1": "596 Dominion Rd", "address2": "Balmoral", "address3": "", "city": "Auckland", "zip_code": "1041", "country": "NZ", "state": "AUK", "display_address": ["596 Dominion Rd", "Balmoral", "Auckland 1041", "New Zealand"]}, "phone": "+6496232145", "display_phone": "+64 9-623 2145", "distance": 111.18950699069238}, {"id": "PTdMgQ6FJS84H6jx1cEuMA", "alias": "my-kitchen-auckland", "name": "My Kitchen", "image_url": "https://s3-media2.fl.yelpcdn.com/bphoto/uaE2VXOh4bbhutu0RqtWKA/o.jpg", "is_closed": false, "url": "https://www.yelp.com/biz/my-kitchen-auckland?adjust_creative=wwF0xmAmk6ZmxYuaGEHDag&utm_campaign=yelp_api_v3&utm_medium=api_v3_business_search&utm_source=wwF0xmAmk6ZmxYuaGEHDag", "review_count": 7, "categories": [{"alias": "taiwanese", "title": "Taiwanese"}, {"alias": "chinese", "title": "Chinese"}, {"alias": "asianfusion", "title": "Asian Fusion"}], "rating": 3.0, "coordinates": {"latitude": -36.887535, "longitude": 174.7471139}, "transactions": [], "price": "$$", "location": {"address1": "543 Dominion Rd", "address2": "Mt Eden", "address3": "", "city": "Auckland", "zip_code": "1041", "country": "NZ", "state": "AUK", "display_address": ["543 Dominion Rd", "Mt Eden", "Auckland 1041", "New Zealand"]}, "phone": "+6496309600", "display_phone": "+64 9-630 9600", "distance": 102.00786697156734}, {"id": "1ZqmnXyuzm_i0yB57o6Orw", "alias": "big-beat-auckland", "name": "Big Beat", "image_url": "https://s3-media3.fl.yelpcdn.com/bphoto/IvM78aFvaefHAQbxyeugQg/o.jpg", "is_closed": false, "url": "https://www.yelp.com/biz/big-beat-auckland?adjust_creative=wwF0xmAmk6ZmxYuaGEHDag&utm_campaign=yelp_api_v3&utm_medium=api_v3_business_search&utm_source=wwF0xmAmk6ZmxYuaGEHDag", "review_count": 6, "categories": [{"alias": "cafes", "title": "Cafes"}, {"alias": "coffee", "title": "Coffee & Tea"}], "rating": 4.0, "coordinates": {"latitude": -36.8902337, "longitude": 174.7464086}, "transactions": [], "price": "$", "location": {"address1": "700 Dominion Rd", "address2": "Balmoral", "address3": "", "city": "Auckland", "zip_code": "1024", "country": "NZ", "state": "AUK", "display_address": ["700 Dominion Rd", "Balmoral", "Auckland 1024", "New Zealand"]}, "phone": "+6496308556", "display_phone": "+64 9-630 8556", "distance": 408.4852126738997}, {"id": "LyaSqSfv8xpHXUff0MLFIA", "alias": "wang-wang-pancake-auckland", "name": "Wang Wang Pancake", "image_url": "https://s3-media4.fl.yelpcdn.com/bphoto/ZXLjUyK_N1dXFUnsB7C7Yw/o.jpg", "is_closed": false, "url": "https://www.yelp.com/biz/wang-wang-pancake-auckland?adjust_creative=wwF0xmAmk6ZmxYuaGEHDag&utm_campaign=yelp_api_v3&utm_medium=api_v3_business_search&utm_source=wwF0xmAmk6ZmxYuaGEHDag", "review_count": 4, "categories": [{"alias": "creperies", "title": "Creperies"}, {"alias": "chinese", "title": "Chinese"}], "rating": 4.0, "coordinates": {"latitude": -36.8903008, "longitude": 174.7465668}, "transactions": [], "price": "$$", "location": {"address1": "704 Dominion Road", "address2": "Mount Eden", "address3": "", "city": "Auckland", "zip_code": "1041", "country": "NZ", "state": "AUK", "display_address": ["704 Dominion Road", "Mount Eden", "Auckland 1041", "New Zealand"]}, "phone": "+6496303916", "display_phone": "+64 9-630 3916", "distance": 409.75333998787954}, {"id": "4jAWuCe3yywzZnwHTudaxQ", "alias": "boonchu-thai-takeaways-auckland", "name": "Boonchu Thai Takeaways", "image_url": "https://s3-media3.fl.yelpcdn.com/bphoto/D6ft-HpdBIE1frJiMTblpA/o.jpg", "is_closed": false, "url": "https://www.yelp.com/biz/boonchu-thai-takeaways-auckland?adjust_creative=wwF0xmAmk6ZmxYuaGEHDag&utm_campaign=yelp_api_v3&utm_medium=api_v3_business_search&utm_source=wwF0xmAmk6ZmxYuaGEHDag", "review_count": 6, "categories": [{"alias": "thai", "title": "Thai"}], "rating": 3.5, "coordinates": {"latitude": -36.889454, "longitude": 174.7464849}, "transactions": [], "price": "$", "location": {"address1": "613 Dominion Rd", "address2": "Balmoral", "address3": "", "city": "Auckland", "zip_code": "1041", "country": "NZ", "state": "AUK", "display_address": ["613 Dominion Rd", "Balmoral", "Auckland 1041", "New Zealand"]}, "phone": "+6496307725", "display_phone": "+64 9-630 7725", "distance": 322.261596935244}, {"id": "fNV4D_P5-PiaUtr4FAP7GQ", "alias": "bilbos-auckland", "name": "Bilbo's", "image_url": "https://s3-media1.fl.yelpcdn.com/bphoto/osOZkMwttERHIcC8cDZutg/o.jpg", "is_closed": false, "url": "https://www.yelp.com/biz/bilbos-auckland?adjust_creative=wwF0xmAmk6ZmxYuaGEHDag&utm_campaign=yelp_api_v3&utm_medium=api_v3_business_search&utm_source=wwF0xmAmk6ZmxYuaGEHDag", "review_count": 4, "categories": [{"alias": "hotdogs", "title": "Fast Food"}, {"alias": "fishnchips", "title": "Fish & Chips"}], "rating": 4.0, "coordinates": {"latitude": -36.8827997, "longitude": 174.7489429}, "transactions": [], "price": "$", "location": {"address1": "456 Dominion Road", "address2": "Mt Eden", "address3": "", "city": "Auckland", "zip_code": "1024", "country": "NZ", "state": "AUK", "display_address": ["456 Dominion Road", "Mt Eden", "Auckland 1024", "New Zealand"]}, "phone": "+6496305998", "display_phone": "+64 9-630 5998", "distance": 450.3450078172487}, {"id": "BMc3s16wv2TBRMzIfp0CIg", "alias": "cafe-sushi-auckland", "name": "Cafe Sushi", "image_url": "https://s3-media1.fl.yelpcdn.com/bphoto/U7jF3JBUfwsBZCXZYVcV5Q/o.jpg", "is_closed": false, "url": "https://www.yelp.com/biz/cafe-sushi-auckland?adjust_creative=wwF0xmAmk6ZmxYuaGEHDag&utm_campaign=yelp_api_v3&utm_medium=api_v3_business_search&utm_source=wwF0xmAmk6ZmxYuaGEHDag", "review_count": 2, "categories": [{"alias": "japanese", "title": "Japanese"}], "rating": 4.0, "coordinates": {"latitude": -36.8877808, "longitude": 174.7473922}, "transactions": [], "location": {"address1": "612 Dominion Rd", "address2": "Balmoral", "address3": "", "city": "Auckland", "zip_code": "1041", "country": "NZ", "state": "AUK", "display_address": ["612 Dominion Rd", "Balmoral", "Auckland 1041", "New Zealand"]}, "phone": "+6496388758", "display_phone": "+64 9-638 8758", "distance": 128.37160088031365}, {"id": "yMjFDjImbUmKGlu9rO7J1w", "alias": "woos-the-stall-auckland", "name": "Woo's - The Stall", "image_url": "https://s3-media2.fl.yelpcdn.com/bphoto/lPHykD5rIb-EdI1JprYHtA/o.jpg", "is_closed": false, "url": "https://www.yelp.com/biz/woos-the-stall-auckland?adjust_creative=wwF0xmAmk6ZmxYuaGEHDag&utm_campaign=yelp_api_v3&utm_medium=api_v3_business_search&utm_source=wwF0xmAmk6ZmxYuaGEHDag", "review_count": 2, "categories": [{"alias": "cantonese", "title": "Cantonese"}], "rating": 4.0, "coordinates": {"latitude": -36.8847771, "longitude": 174.7480011}, "transactions": [], "price": "$$", "location": {"address1": "465 Dominion Rd", "address2": "Mt Eden", "address3": "", "city": "Auckland", "zip_code": "1024", "country": "NZ", "state": "AUK", "display_address": ["465 Dominion Rd", "Mt Eden", "Auckland 1024", "New Zealand"]}, "phone": "+6496317546", "display_phone": "+64 9-631 7546", "distance": 222.8742055066978}, {"id": "GMC-YYplu7pCguU0--1SUQ", "alias": "jadetown-uyghur-cuisine-auckland", "name": "Jadetown Uyghur Cuisine", "image_url": "https://s3-media3.fl.yelpcdn.com/bphoto/5Sv25AeS6M8o1lJTYidq-w/o.jpg", "is_closed": false, "url": "https://www.yelp.com/biz/jadetown-uyghur-cuisine-auckland?adjust_creative=wwF0xmAmk6ZmxYuaGEHDag&utm_campaign=yelp_api_v3&utm_medium=api_v3_business_search&utm_source=wwF0xmAmk6ZmxYuaGEHDag", "review_count": 1, "categories": [{"alias": "asianfusion", "title": "Asian Fusion"}], "rating": 5.0, "coordinates": {"latitude": -36.8876269279428, "longitude": 174.747412010444}, "transactions": [], "price": "$$", "location": {"address1": "598 Dominion Rd", "address2": "", "address3": null, "city": "Auckland", "zip_code": "1041", "country": "NZ", "state": "AUK", "display_address": ["598 Dominion Rd", "Auckland 1041", "New Zealand"]}, "phone": "+6496235072", "display_phone": "+64 9-623 5072", "distance": 111.4596372669408}, {"id": "O8rxc1Pnp2UF1kDqqgcMtw", "alias": "kiss-kiss-balmoral", "name": "Kiss Kiss", "image_url": "https://s3-media3.fl.yelpcdn.com/bphoto/7NUkOTfTr691KTNydO5Npg/o.jpg", "is_closed": false, "url": "https://www.yelp.com/biz/kiss-kiss-balmoral?adjust_creative=wwF0xmAmk6ZmxYuaGEHDag&utm_campaign=yelp_api_v3&utm_medium=api_v3_business_search&utm_source=wwF0xmAmk6ZmxYuaGEHDag", "review_count": 3, "categories": [{"alias": "cocktailbars", "title": "Cocktail Bars"}, {"alias": "thai", "title": "Thai"}, {"alias": "breakfast_brunch", "title": "Breakfast & Brunch"}], "rating": 3.5, "coordinates": {"latitude": -36.8883957079659, "longitude": 174.747264124453}, "transactions": [], "price": "$$", "location": {"address1": "1 Rocklands Ave", "address2": "", "address3": "", "city": "Balmoral", "zip_code": "3407", "country": "AU", "state": "VIC", "display_address": ["1 Rocklands Ave", "Balmoral Victoria 3407", "Australia"]}, "phone": "", "display_phone": "", "distance": 196.4667120232338}, {"id": "6jVDNxgfazf_AYREhuTDWQ", "alias": "youngs-pancake-talk-auckland", "name": "Young's Pancake Talk", "image_url": "https://s3-media3.fl.yelpcdn.com/bphoto/nh9aKQzKkFGp8G7DheUgTQ/o.jpg", "is_closed": false, "url": "https://www.yelp.com/biz/youngs-pancake-talk-auckland?adjust_creative=wwF0xmAmk6ZmxYuaGEHDag&utm_campaign=yelp_api_v3&utm_medium=api_v3_business_search&utm_source=wwF0xmAmk6ZmxYuaGEHDag", "review_count": 2, "categories": [{"alias": "chinese", "title": "Chinese"}], "rating": 4.0, "coordinates": {"latitude": -36.8880152, "longitude": 174.7493243}, "transactions": [], "location": {"address1": "164 Balmoral Road", "address2": "", "address3": "", "city": "Auckland", "zip_code": "1024", "country": "NZ", "state": "AUK", "display_address": ["164 Balmoral Road", "Auckland 1024", "New Zealand"]}, "phone": "", "display_phone": "", "distance": 237.40813029423867}, {"id": "VE3WcFrSjMlfDRbInwiAjg", "alias": "gogo-music-cafe-auckland-2", "name": "Gogo Music Cafe", "image_url": "https://s3-media2.fl.yelpcdn.com/bphoto/0AuipiFdDK9Fs9fxlrR70g/o.jpg", "is_closed": false, "url": "https://www.yelp.com/biz/gogo-music-cafe-auckland-2?adjust_creative=wwF0xmAmk6ZmxYuaGEHDag&utm_campaign=yelp_api_v3&utm_medium=api_v3_business_search&utm_source=wwF0xmAmk6ZmxYuaGEHDag", "review_count": 2, "categories": [{"alias": "musicvenues", "title": "Music Venues"}, {"alias": "chinese", "title": "Chinese"}], "rating": 3.5, "coordinates": {"latitude": -36.8880724333286, "longitude": 174.746977591996}, "transactions": [], "price": "$$", "location": {"address1": "559 Dominion Road", "address2": "Balmoral", "address3": "", "city": "Auckland", "zip_code": "1041", "country": "NZ", "state": "AUK", "display_address": ["559 Dominion Road", "Balmoral", "Auckland 1041", "New Zealand"]}, "phone": "+6496388365", "display_phone": "+64 9-638 8365", "distance": 162.95041575001073}, {"id": "ubDrcMDwwHkYSYA8W-GvRQ", "alias": "meet-fresh-balmoral", "name": "Meet Fresh", "image_url": "https://s3-media3.fl.yelpcdn.com/bphoto/tGol-IqP932vSKJspmYsTg/o.jpg", "is_closed": false, "url": "https://www.yelp.com/biz/meet-fresh-balmoral?adjust_creative=wwF0xmAmk6ZmxYuaGEHDag&utm_campaign=yelp_api_v3&utm_medium=api_v3_business_search&utm_source=wwF0xmAmk6ZmxYuaGEHDag", "review_count": 3, "categories": [{"alias": "desserts", "title": "Desserts"}], "rating": 2.5, "coordinates": {"latitude": -36.8873612263043, "longitude": 174.747136197454}, "transactions": [], "price": "$$", "location": {"address1": "533 Dominion Rd", "address2": "", "address3": "", "city": "Balmoral", "zip_code": "1041", "country": "NZ", "state": "AUK", "display_address": ["533 Dominion Rd", "Balmoral 1041", "New Zealand"]}, "phone": "+6496306089", "display_phone": "+64 9-630 6089", "distance": 82.62045346690317}, {"id": "t397FlhKIXUYqhpZA-xsbQ", "alias": "cinta-auckland", "name": "Cinta", "image_url": "https://s3-media2.fl.yelpcdn.com/bphoto/FjlU1Ng0tsmjq6L6ypZKmA/o.jpg", "is_closed": false, "url": "https://www.yelp.com/biz/cinta-auckland?adjust_creative=wwF0xmAmk6ZmxYuaGEHDag&utm_campaign=yelp_api_v3&utm_medium=api_v3_business_search&utm_source=wwF0xmAmk6ZmxYuaGEHDag", "review_count": 4, "categories": [{"alias": "malaysian", "title": "Malaysian"}], "rating": 4.0, "coordinates": {"latitude": -36.8828529264177, "longitude": 174.748817237813}, "transactions": [], "price": "$$", "location": {"address1": "454 Dominion Rd", "address2": "Mt Eden", "address3": "", "city": "Auckland", "zip_code": "1024", "country": "NZ", "state": "AUK", "display_address": ["454 Dominion Rd", "Mt Eden", "Auckland 1024", "New Zealand"]}, "phone": "+6496232808", "display_phone": "+64 9-623 2808", "distance": 441.19425613773154}, {"id": "-b_0JNXOpJSrB2q-2JkY4g", "alias": "smile-dessert-auckland-3", "name": "Smile Dessert", "image_url": "https://s3-media2.fl.yelpcdn.com/bphoto/QWmyNusgDlRNxVNKUNdLMw/o.jpg", "is_closed": false, "url": "https://www.yelp.com/biz/smile-dessert-auckland-3?adjust_creative=wwF0xmAmk6ZmxYuaGEHDag&utm_campaign=yelp_api_v3&utm_medium=api_v3_business_search&utm_source=wwF0xmAmk6ZmxYuaGEHDag", "review_count": 1, "categories": [{"alias": "desserts", "title": "Desserts"}, {"alias": "asianfusion", "title": "Asian Fusion"}], "rating": 5.0, "coordinates": {"latitude": -36.8834459251623, "longitude": 174.748577065766}, "transactions": [], "location": {"address1": "433 Dominion Rd", "address2": "Mt Eden", "address3": "", "city": "Auckland", "zip_code": "1024", "country": "NZ", "state": "AUK", "display_address": ["433 Dominion Rd", "Mt Eden", "Auckland 1024", "New Zealand"]}, "phone": "+6496387916", "display_phone": "+64 9-638 7916", "distance": 371.88225067274743}, {"id": "96ce7hGzELYR6HtV77tD_w", "alias": "belly-worship-auckland", "name": "Belly Worship", "image_url": "https://s3-media4.fl.yelpcdn.com/bphoto/nWIAbbc1b7WgL7RdSGi8vg/o.jpg", "is_closed": false, "url": "https://www.yelp.com/biz/belly-worship-auckland?adjust_creative=wwF0xmAmk6ZmxYuaGEHDag&utm_campaign=yelp_api_v3&utm_medium=api_v3_business_search&utm_source=wwF0xmAmk6ZmxYuaGEHDag", "review_count": 1, "categories": [{"alias": "chinese", "title": "Chinese"}, {"alias": "asianfusion", "title": "Asian Fusion"}], "rating": 4.0, "coordinates": {"latitude": -36.8876599, "longitude": 174.74705}, "transactions": [], "location": {"address1": "547 Dominion Rd", "address2": "Mount Eden", "address3": null, "city": "Auckland", "zip_code": "1041", "country": "NZ", "state": "AUK", "display_address": ["547 Dominion Rd", "Mount Eden", "Auckland 1041", "New Zealand"]}, "phone": "+6496388389", "display_phone": "+64 9-638 8389", "distance": 116.13997707117223}, {"id": "z6MOImAJlNTUw6yPyI7Nug", "alias": "golden-tulip-auckland", "name": "Golden Tulip", "image_url": "https://s3-media2.fl.yelpcdn.com/bphoto/fHC8IRQk87JiDWB9Wf6AWA/o.jpg", "is_closed": false, "url": "https://www.yelp.com/biz/golden-tulip-auckland?adjust_creative=wwF0xmAmk6ZmxYuaGEHDag&utm_campaign=yelp_api_v3&utm_medium=api_v3_business_search&utm_source=wwF0xmAmk6ZmxYuaGEHDag", "review_count": 1, "categories": [{"alias": "malaysian", "title": "Malaysian"}], "rating": 4.0, "coordinates": {"latitude": -36.8874174, "longitude": 174.7471539}, "transactions": [], "location": {"address1": "537 Dominion Rd", "address2": "Balmoral", "address3": "", "city": "Auckland", "zip_code": "1041", "country": "NZ", "state": "AUK", "display_address": ["537 Dominion Rd", "Balmoral", "Auckland 1041", "New Zealand"]}, "phone": "+6496306882", "display_phone": "+64 9-630 6882", "distance": 88.54701660936486}, {"id": "RnUXeJQ7zNREBOf7TyGoyw", "alias": "bun-hut-auckland", "name": "Bun Hut", "image_url": "https://s3-media1.fl.yelpcdn.com/bphoto/BQVfWhbUjxEIpFRYW_GjqA/o.jpg", "is_closed": false, "url": "https://www.yelp.com/biz/bun-hut-auckland?adjust_creative=wwF0xmAmk6ZmxYuaGEHDag&utm_campaign=yelp_api_v3&utm_medium=api_v3_business_search&utm_source=wwF0xmAmk6ZmxYuaGEHDag", "review_count": 3, "categories": [{"alias": "hotdogs", "title": "Fast Food"}, {"alias": "chinese", "title": "Chinese"}], "rating": 3.5, "coordinates": {"latitude": -36.8900687, "longitude": 174.7463772}, "transactions": [], "price": "$", "location": {"address1": "563 Dominion Road, Balmoral", "address2": "", "address3": "", "city": "Auckland", "zip_code": "1041", "country": "NZ", "state": "AUK", "display_address": ["563 Dominion Road, Balmoral", "Auckland 1041", "New Zealand"]}, "phone": "", "display_phone": "", "distance": 391.0708815174452}, {"id": "OdEJeD3DxYtJ16XXMeU9BA", "alias": "hulu-cat-express-auckland", "name": "Hulu Cat Express", "image_url": "https://s3-media1.fl.yelpcdn.com/bphoto/FCsPOQnhhF1Hakyh0qOptA/o.jpg", "is_closed": false, "url": "https://www.yelp.com/biz/hulu-cat-express-auckland?adjust_creative=wwF0xmAmk6ZmxYuaGEHDag&utm_campaign=yelp_api_v3&utm_medium=api_v3_business_search&utm_source=wwF0xmAmk6ZmxYuaGEHDag", "review_count": 2, "categories": [{"alias": "tea", "title": "Tea Rooms"}], "rating": 3.5, "coordinates": {"latitude": -36.889, "longitude": 174.746596845976}, "transactions": [], "price": "$", "location": {"address1": "603 Dominion Road", "address2": "Balmoral", "address3": "", "city": "Auckland", "zip_code": "1041", "country": "NZ", "state": "AUK", "display_address": ["603 Dominion Road", "Balmoral", "Auckland 1041", "New Zealand"]}, "phone": "+6492801688", "display_phone": "+64 9-280 1688", "distance": 270.83526006266356}], "total": 43, "region": {"center": {"longitude": 174.747294, "latitude": -36.886629}}}